{"business_id":"1SWheh84yJXfytovILXOAQ","name":"Arizona Biltmore Golf Club","address":"2818 E Camino Acequia Drive","city":"Phoenix","state":"AZ","postal_code":"85016","latitude":33.5221425,"longitude":-112.0184807,"stars":3.0,"review_count":5,"is_open":0,"attributes":{"GoodForKids":"False"},"categories":"Golf, Active Life","hours":null}
{"business_id":"xvX2CttrVhyG2z1dFg_0xw","name":"Farmers Insurance - Paul Lorenz","address":"15655 W Roosevelt St, Ste 237","city":"Goodyear","state":"AZ","postal_code":"85338","latitude":33.4556129678,"longitude":-112.3955963552,"stars":5.0,"review_count":3,"is_open":1,"attributes":null,"categories":"Insurance, Financial Services","hours":{"Monday":"8:0-17:0","Tuesday":"8:0-17:0","Wednesday":"8:0-17:0","Thursday":"8:0-17:0","Friday":"8:0-17:0"}}
{"business_id":"68dUKd8_8liJ7in4aWOSEA","name":"The UPS Store","address":"Credit Valley Town Plaza, F2 - 6045 Creditview Rd","city":"Mississauga","state":"ON","postal_code":"L5V 0B1","latitude":43.5994753,"longitude":-79.7115835,"stars":2.5,"review_count":3,"is_open":1,"attributes":{"BusinessParking":"{'garage': False, 'street': False, 'validated': False, 'lot': False, 'valet': False}","RestaurantsPriceRange2":"2"},"categories":"Shipping Centers, Couriers & Delivery Services, Local Services, Printing Services","hours":{"Monday":"9:0-19:0","Tuesday":"9:0-20:0","Wednesday":"9:0-20:0","Thursday":"9:0-20:0","Friday":"9:0-19:0","Saturday":"10:0-16:0"}}
{"business_id":"ujmEBvifdJM6h6RLv4wQIg","name":"MountainView Hospital","address":"3100 N Tenaya Way","city":"Las Vegas","state":"NV","postal_code":"89128","latitude":36.2155456,"longitude":-115.2487979,"stars":2.5,"review_count":238,"is_open":1,"attributes":{"ByAppointmentOnly":"False","GoodForKids":"False","BusinessAcceptsCreditCards":"True","AcceptsInsurance":"True"},"categories":"Fitness & Instruction, Doctors, Health & Medical, Active Life, Gyms, Emergency Rooms, Medical Centers, Hospitals","hours":{"Monday":"0:0-0:0","Tuesday":"0:0-0:0","Wednesday":"0:0-0:0","Thursday":"0:0-0:0","Friday":"0:0-0:0","Saturday":"0:0-0:0","Sunday":"0:0-0:0"}}
